{"_id":{"$oid":"59564a66423d8ec85bec0d00"},"Date of Call":{"$date":"2016-04-04T14:00:00.000Z"},"Time of Call":"14:00:00","Call Duration":10.0,"staff_id":4.0,"Reason for call":"Requred ambulance to carry passenger to hospital","resolutionType":"Ambulance","comments":"Sent a ambulance to address HA4 3QE","customer_info":{"name":"Jack Clark","phonenumber":"07912985955","address":"4 Elton Avenue, HA4 3QE","location":"Kenton"}}
{"_id":{"$oid":"59564a66423d8ec85bec0d01"},"Date of Call":{"$date":"2017-05-04T16:00:00.000Z"},"Time of Call":"16:00:00","Call Duration":15.0,"staff_id":3.0,"Reason for call":"Requred police due to the robbry in the house","resolutionType":"Police","comments":"Sent a police to address HA7 3QE","customer_info":{"name":"Alex Martin","phonenumber":"07913985955","address":"56 Ajax Avenue, HA7 3AD","location":"Northwood Hills"}}
{"_id":{"$oid":"59564a66423d8ec85bec0d02"},"Date of Call":{"$date":"2017-06-24T16:00:00.000Z"},"Time of Call":"16:00:00","Call Duration":13.0,"staff_id":2.0,"Reason for call":"Requred ambulance to carry passenger to hospital","resolutionType":"Ambulance","comments":"Sent a police to address HA0 2EE","customer_info":{"name":"Daniel Kenny","phonenumber":"07912885955","address":"42 Roadside Avenue, HA0 2EE","location":"Sudbury"}}
{"_id":{"$oid":"59564a66423d8ec85bec0d03"},"Date of Call":{"$date":"2017-06-05T16:00:00.000Z"},"Time of Call":"16:00:00","Call Duration":3.0,"staff_id":1.0,"Reason for call":"Requred ambulance to carry passenger to hospital","resolutionType":"Firebrigade","comments":"Sent a firebridade to address HA3 4ED","customer_info":{"name":"Jack Clark","phonenumber":"07912905955","address":"14 Dagmar Avenue, HA3 4ED","location":"Kenton"}}
{"_id":{"$oid":"59564a66423d8ec85bec0d04"},"Date of Call":{"$date":"2017-05-29T16:00:00.000Z"},"Time of Call":"16:00:00","Call Duration":1.0,"staff_id":3.0,"Reason for call":"Requred firebridade due to the fire in the house","resolutionType":"Firebrigade","comments":"Sent a firebridade to address NW10 5OI","customer_info":{"name":"Harry Davidson","phonenumber":"07912985755","address":"9 Ealing Avenue, NW10 5OI","location":"Stonebridge Park"}}
{"_id":{"$oid":"59564a66423d8ec85bec0d05"},"Date of Call":{"$date":"2017-05-27T16:00:00.000Z"},"Time of Call":"13:00:00","Call Duration":2.0,"staff_id":3.0,"Reason for call":"Requred police due to the robbry in the house","resolutionType":"Police","comments":"Sent a police to address NW10 3QG","customer_info":{"name":"James Blair","phonenumber":"07912985955","address":"101 Highstreet Avenue, NW10 3QG","location":"Stonebridge Park"}}
{"_id":{"$oid":"59564a66423d8ec85bec0d07"},"Date of Call":{"$date":"2017-06-14T16:00:00.000Z"},"Time of Call":"15:00:00","Call Duration":5.0,"staff_id":5.0,"Reason for call":"Requred ambulance due to the robbry in the house","resolutionType":"Ambulance","comments":"Sent a ambulance to address NW4 5JN","customer_info":{"name":"Jack Clark","phonenumber":"07912985955","address":"4 Oldage Avenue, NW4 5JN","location":"Harlesden"}}
{"_id":{"$oid":"59564a66423d8ec85bec0d08"},"Date of Call":{"$date":"2017-06-21T16:00:00.000Z"},"Time of Call":"14:00:00","Call Duration":11.0,"staff_id":1.0,"Reason for call":"Requred firebridade due to the fire in the house","resolutionType":"Firebrigade","comments":"Sent a firebridade to address NW10 9GG","customer_info":{"name":"Jacky Johnson","phonenumber":"07912985955","address":"33 New Street Avenue, NW10 9GG","location":"Stonebridge Park"}}
{"_id":{"$oid":"59564a66423d8ec85bec0d09"},"Date of Call":{"$date":"2017-05-04T16:00:00.000Z"},"Time of Call":"16:00:00","Call Duration":4.0,"staff_id":3.0,"Reason for call":"Requred police due to the robbry in the house","resolutionType":"Police","comments":"Sent a police to address NW4 9WW","customer_info":{"name":"Mark Brownson","phonenumber":"07912935955","address":"18 New Town Avenue, NW4 9WW","location":"Harlesden"}}
{"_id":{"$oid":"59564a66423d8ec85bec0d0a"},"Date of Call":{"$date":"1970-01-01T00:00:00.000Z"},"Time of Call":"15:00:00","Call Duration":7.0,"staff_id":3.0,"Reason for call":"Requred ambulance to carry passenger to hospital","resolutionType":"Ambulance","comments":"Sent a ambulance to address NW4 0OO","customer_info":{"name":"Mark Batt","phonenumber":"07912785955","address":"49 Old Town Avenue, NW4 0OO","location":"Harlesden"}}
